{
  "id": "trail_shanghai_001",
  "name": "古美公园环湖轻徒步",
  "coverImage": "https://picsum.photos/seed/gumeipark/800/450",
  "difficulty": "简单",
  "difficultyLevel": 1,
  "distance": 2.5,
  "duration": 45,
  "elevation": 5,
  "location": "上海闵行区",
  "description": "古美公园坐落于闵行区平吉路与合川路交叉口，是一座以蝶形湖泊为中心的城市生态公园。沿湖铺设的木栈道与亲水平台相映成趣，湿地绿植环绕，四季景色各异。清晨薄雾缭绕，傍晚霞光映照湖面，是都市人逃离喧嚣、享受片刻宁静的理想去处。",
  "route": {
    "start": {
      "lat": 31.160521,
      "lng": 121.393847,
      "name": "古美公园南门"
    },
    "end": {
      "lat": 31.160521,
      "lng": 121.393847,
      "name": "古美公园南门"
    },
    "points": [
      {"lat": 31.160521, "lng": 121.393847},
      {"lat": 31.161234, "lng": 121.394521},
      {"lat": 31.161856, "lng": 121.395234},
      {"lat": 31.162345, "lng": 121.395678},
      {"lat": 31.162678, "lng": 121.396123},
      {"lat": 31.162456, "lng": 121.396567},
      {"lat": 31.162123, "lng": 121.397012},
      {"lat": 31.161789, "lng": 121.397345},
      {"lat": 31.161345, "lng": 121.397678},
      {"lat": 31.160912, "lng": 121.397234},
      {"lat": 31.160567, "lng": 121.396789},
      {"lat": 31.160234, "lng": 121.396234},
      {"lat": 31.160012, "lng": 121.395678},
      {"lat": 31.160234, "lng": 121.395123},
      {"lat": 31.160456, "lng": 121.394567},
      {"lat": 31.160521, "lng": 121.393847}
    ]
  },
  "features": [
    {
      "type": "景观",
      "name": "蝶形湖泊",
      "description": "公园核心景观，湖水清澈，倒映天光云影"
    },
    {
      "type": "景观",
      "name": "亲水平台",
      "description": "沿湖而建的观景平台，可近距离感受水波粼粼"
    },
    {
      "type": "景观",
      "name": "木栈道",
      "description": "环湖木栈道，穿梭于绿植与湿地之间"
    },
    {
      "type": "设施",
      "name": "健身步道",
      "description": "专业健身步道，适合晨练和慢跑"
    },
    {
      "type": "设施",
      "name": "休憩凉亭",
      "description": "多处凉亭供游客休息纳凉"
    },
    {
      "type": "生态",
      "name": "湿地花园",
      "description": "丰富的湿地植被，鸟类栖息的乐园"
    }
  ],
  "facilities": {
    "parking": [
      {
        "name": "古美公园停车场",
        "location": "平吉路入口附近",
        "type": "地面停车场",
        "capacity": "约50个车位"
      }
    ],
    "restroom": [
      {
        "name": "公共卫生间",
        "location": "公园南门入口东侧"
      }
    ],
    "supplies": [
      {
        "name": "自动售货机",
        "location": "公园入口处",
        "items": "饮料、零食"
      }
    ],
    "transport": [
      {
        "type": "地铁",
        "info": "12号线虹梅路站，步行约15分钟"
      },
      {
        "type": "公交",
        "info": "平吉路合川路站（虹桥枢纽1路等）"
      }
    ]
  },
  "safety": [
    {
      "category": "适合人群",
      "content": "全年龄段适宜，特别适合亲子家庭、老年人晨练"
    },
    {
      "category": "注意事项",
      "content": "湖边步道湿滑时请注意防滑；夜间照明有限，建议结伴同行"
    },
    {
      "category": "最佳时间",
      "content": "清晨6:00-8:00（观鸟最佳）、傍晚17:00-19:00（赏落日）"
    },
    {
      "category": "宠物",
      "content": "可携带宠物，需牵绳"
    }
  ],
  "bestSeason": ["春季", "秋季"],
  "source": "网络公开信息整理",
  "collectionDate": "2026-03-19",
  "dataVersion": "v1.0",
  "notes": "城市公园轻徒步路线，全程平坦，适合休闲健身"
}
